id,location,lat,long,students
19,"Daimler-Benz-Straße, Fulda",50.5718103,9.6869451,500
20,"Künzeller Straße, Fulda",50.5461893,9.6893066,600
21,"Berliner Straße, Fulda",50.539796,9.696919,700
22,Leipziger Strasse,50.5673015,9.6880903,800
23,Heinrichstrasse,50.5517157,9.6819643,1000
